{"postalcodes":[{"adminCode3":"70805","adminName2":"Reutte","adminName3":"Breitenwang","adminCode2":"708","postalcode":"6600","adminCode1":"T","countryCode":"AT","lng":10.7050916669573,"placeName":"Bad Kreckelmoos","lat":47.49008559047153,"adminName1":"Tirol"},{"adminCode3":"70822","adminName2":"Reutte","adminName3":"Musau","adminCode2":"708","postalcode":"6600","adminCode1":"T","countryCode":"AT","lng":10.7050916669573,"placeName":"Brandstatt","lat":47.49008559047153,"adminName1":"Tirol"},{"adminCode3":"70805","adminName2":"Reutte","adminName3":"Breitenwang","adminCode2":"708","postalcode":"6600","adminCode1":"T","countryCode":"AT","lng":10.7333333,"placeName":"Breitenwang","lat":47.4833333,"adminName1":"Tirol"},{"adminCode3":"70828","adminName2":"Reutte","adminName3":"Reutte","adminCode2":"708","postalcode":"6600","adminCode1":"T","countryCode":"AT","lng":10.73,"placeName":"Doktor Schwarzkopf-Siedlung","lat":47.5002778,"adminName1":"Tirol"},{"adminCode3":"70806","adminName2":"Reutte","adminName3":"Ehenbichl","adminCode2":"708","postalcode":"6600","adminCode1":"T","countryCode":"AT","lng":10.7,"placeName":"Ehenbichl","lat":47.4666667,"adminName1":"Tirol"},{"adminCode3":"70835","adminName2":"Reutte","adminName3":"Wängle","adminCode2":"708","postalcode":"6600","adminCode1":"T","countryCode":"AT","lng":10.7,"placeName":"Hinterbichl","lat":47.5,"adminName1":"Tirol"},{"adminCode3":"70835","adminName2":"Reutte","adminName3":"Wängle","adminCode2":"708","postalcode":"6600","adminCode1":"T","countryCode":"AT","lng":10.724044443999999,"placeName":"Holz","lat":47.49098888799999,"adminName1":"Tirol"},{"adminCode3":"70816","adminName2":"Reutte","adminName3":"Höfen","adminCode2":"708","postalcode":"6600","adminCode1":"T","countryCode":"AT","lng":10.7050916669573,"placeName":"Höfen","lat":47.49008559047153,"adminName1":"Tirol"},{"adminCode3":"70805","adminName2":"Reutte","adminName3":"Breitenwang","adminCode2":"708","postalcode":"6600","adminCode1":"T","countryCode":"AT","lng":10.724044443999999,"placeName":"Hölltal","lat":47.49098888799999,"adminName1":"Tirol"},{"adminCode3":"70805","adminName2":"Reutte","adminName3":"Breitenwang","adminCode2":"708","postalcode":"6600","adminCode1":"T","countryCode":"AT","lng":10.724044443999999,"placeName":"Kaiserbrunnen","lat":47.49098888799999,"adminName1":"Tirol"},{"adminCode3":"70806","adminName2":"Reutte","adminName3":"Ehenbichl","adminCode2":"708","postalcode":"6600","adminCode1":"T","countryCode":"AT","lng":10.724044443999999,"placeName":"Katzenmühl","lat":47.49098888799999,"adminName1":"Tirol"},{"adminCode3":"70828","adminName2":"Reutte","adminName3":"Reutte","adminCode2":"708","postalcode":"6600","adminCode1":"T","countryCode":"AT","lng":10.7166667,"placeName":"Klause","lat":47.4666667,"adminName1":"Tirol"},{"adminCode3":"70805","adminName2":"Reutte","adminName3":"Breitenwang","adminCode2":"708","postalcode":"6600","adminCode1":"T","countryCode":"AT","lng":10.7050916669573,"placeName":"Kreckelmoos","lat":47.49008559047153,"adminName1":"Tirol"},{"adminCode3":"70820","adminName2":"Reutte","adminName3":"Lechaschau","adminCode2":"708","postalcode":"6600","adminCode1":"T","countryCode":"AT","lng":10.7079,"placeName":"Lechaschau","lat":47.4889,"adminName1":"Tirol"},{"adminCode3":"70822","adminName2":"Reutte","adminName3":"Musau","adminCode2":"708","postalcode":"6600","adminCode1":"T","countryCode":"AT","lng":10.6666667,"placeName":"Musau","lat":47.5333333,"adminName1":"Tirol"},{"adminCode3":"70805","adminName2":"Reutte","adminName3":"Breitenwang","adminCode2":"708","postalcode":"6600","adminCode1":"T","countryCode":"AT","lng":10.724044443999999,"placeName":"Musteralpe Plansee","lat":47.49098888799999,"adminName1":"Tirol"},{"adminCode3":"70805","adminName2":"Reutte","adminName3":"Breitenwang","adminCode2":"708","postalcode":"6600","adminCode1":"T","countryCode":"AT","lng":10.724044443999999,"placeName":"Mühl","lat":47.49098888799999,"adminName1":"Tirol"},{"adminCode3":"70805","adminName2":"Reutte","adminName3":"Breitenwang","adminCode2":"708","postalcode":"6600","adminCode1":"T","countryCode":"AT","lng":10.724044443999999,"placeName":"Neumühl","lat":47.49098888799999,"adminName1":"Tirol"},{"adminCode3":"70816","adminName2":"Reutte","adminName3":"Höfen","adminCode2":"708","postalcode":"6600","adminCode1":"T","countryCode":"AT","lng":10.724044443999999,"placeName":"Oberhornberg","lat":47.49098888799999,"adminName1":"Tirol"},{"adminCode3":"70826","adminName2":"Reutte","adminName3":"Pflach","adminCode2":"708","postalcode":"6600","adminCode1":"T","countryCode":"AT","lng":10.7,"placeName":"Oberletzen","lat":47.5166667,"adminName1":"Tirol"}]}